edges:
- - '0'
  - '22'
- - '1'
  - '22'
- - '2'
  - '22'
- - '3'
  - '22'
- - '4'
  - '7'
- - '5'
  - '8'
- - '6'
  - '7'
- - '7'
  - '22'
- - '8'
  - '9'
- - '8'
  - '10'
- - '8'
  - '12'
- - '8'
  - '13'
- - '8'
  - '14'
- - '8'
  - '15'
- - '8'
  - '18'
- - '8'
  - '19'
- - '8'
  - '22'
- - '11'
  - '22'
- - '16'
  - '22'
- - '17'
  - '22'
- - '20'
  - '24'
- - '21'
  - '22'
- - '22'
  - '23'
- - '22'
  - '24'
- - '24'
  - '25'
- - '24'
  - '26'
- - '24'
  - '27'
- - '24'
  - '28'
- - '24'
  - '29'
nodes:
  '0':
    Country: Algeria
    Internal: '1'
    Latitude: 34.67279
    Longitude: 3.263
    label: Djelfa
  '1':
    Country: Algeria
    Internal: '1'
    Latitude: 36.26417
    Longitude: 2.75393
    label: Medea
  '10':
    Country: Algeria
    Internal: '1'
    Latitude: 35.55597
    Longitude: 6.17414
    label: Batna
  '11':
    Country: Algeria
    Internal: '1'
    Latitude: 36.71182
    Longitude: 4.04591
    label: Tizi Ouzou
  '12':
    Country: Algeria
    Internal: '1'
    Latitude: 36.9
    Longitude: 7.76667
    label: Annaba
  '13':
    Country: Algeria
    Internal: '1'
    Latitude: 36.46214
    Longitude: 7.42608
    label: Guelma
  '14':
    Country: Algeria
    Internal: '1'
    Latitude: 35.40417
    Longitude: 8.12417
    label: Tebessa
  '15':
    Country: Algeria
    Internal: '1'
    Latitude: 35.87541
    Longitude: 7.11353
    label: Oum el Bouaghi
  '16':
    Country: Algeria
    Internal: '1'
    Latitude: 36.75587
    Longitude: 5.08433
    label: Bejaia
  '17':
    Country: Algeria
    Internal: '1'
    Latitude: 36.19112
    Longitude: 5.41373
    label: Setif
  '18':
    Country: Algeria
    Internal: '1'
    Latitude: 36.87617
    Longitude: 6.90921
    label: Skikda
  '19':
    Country: Algeria
    Internal: '1'
    Latitude: 36.82055
    Longitude: 5.76671
    label: Jijel
  '2':
    Internal: '0'
    Latitude: 36.7525
    Longitude: 3.04197
    label: Internet
  '20':
    Country: Algeria
    Internal: '1'
    Latitude: 35.37103
    Longitude: 1.31699
    label: Tiaret
  '21':
    Internal: '0'
    Latitude: 36.7525
    Longitude: 3.04197
    label: GEANT
  '22':
    Country: Algeria
    Internal: '1'
    Latitude: 36.7525
    Longitude: 3.04197
    label: Alger
  '23':
    Country: Algeria
    Internal: '1'
    Latitude: 36.19591
    Longitude: 1.25538
    label: Chlef
  '24':
    Country: Algeria
    Internal: '1'
    Latitude: 35.69111
    Longitude: -0.64167
    label: Oran
  '25':
    Country: Algeria
    Internal: '1'
    Latitude: 35.93115
    Longitude: 0.08918
    label: Mostaganem
  '26':
    Country: Algeria
    Internal: '1'
    Latitude: 34.87833
    Longitude: -1.315
    label: Tlemcen
  '27':
    Country: Algeria
    Internal: '1'
    Latitude: 35.18994
    Longitude: -0.63085
    label: Sidi Bel Abbes
  '28':
    Country: Algeria
    Internal: '1'
    Latitude: 34.83034
    Longitude: 0.15171
    label: Saida
  '29':
    Country: Algeria
    Internal: '1'
    Latitude: 35.31473
    Longitude: -0.05037
    label: Mascara
  '3':
    Country: Algeria
    Internal: '1'
    Latitude: 36.47004
    Longitude: 2.8277
    label: Blida
  '4':
    Country: Algeria
    Internal: '1'
    Latitude: 33.35608
    Longitude: 6.86319
    label: ElOued
  '5':
    Country: Algeria
    Internal: '1'
    Latitude: 36.65944
    Longitude: 5.67186
    label: Msila
  '6':
    Country: Algeria
    Internal: '1'
    Latitude: 33.8
    Longitude: 2.86514
    label: Laghouat
  '7':
    Country: Algeria
    Internal: '1'
    Latitude: 31.94932
    Longitude: 5.32502
    label: Ouargla
  '8':
    Country: Algeria
    Internal: '1'
    Latitude: 36.365
    Longitude: 6.61472
    label: Constantine
  '9':
    Country: Algeria
    Internal: '1'
    Latitude: 34.85038
    Longitude: 5.72805
    label: Biskra
