edges:
- - '0'
  - '1'
- - '1'
  - '2'
- - '1'
  - '3'
- - '1'
  - '4'
- - '1'
  - '5'
- - '1'
  - '6'
nodes:
  '0':
    Country: Belarus
    Internal: '1'
    Latitude: 53.67679
    Longitude: 23.83029
    label: Grodno
  '1':
    Country: Belarus
    Internal: '1'
    Latitude: 53.9
    Longitude: 27.56667
    label: Minsk
  '2':
    Country: Belarus
    Internal: '1'
    Latitude: 55.19048
    Longitude: 30.2033
    label: Vitebsk
  '3':
    Country: Belarus
    Internal: '1'
    Latitude: 53.9141
    Longitude: 30.33764
    label: Mogilev
  '4':
    Country: Belarus
    Internal: '1'
    Latitude: 52.43826
    Longitude: 30.98227
    label: Gomel
  '5':
    Country: Belarus
    Internal: '1'
    Latitude: 52.09755
    Longitude: 23.68775
    label: Brest
  '6':
    Internal: '0'
    Latitude: 53.9
    Longitude: 27.56667
    label: Pionier GEANT 2
