edges:
- - '0'
  - '1'
- - '0'
  - '3'
- - '0'
  - '36'
- - '0'
  - '6'
- - '0'
  - '14'
- - '0'
  - '35'
- - '2'
  - '38'
- - '3'
  - '25'
- - '3'
  - '35'
- - '3'
  - '17'
- - '4'
  - '7'
- - '5'
  - '6'
- - '5'
  - '7'
- - '6'
  - '9'
- - '6'
  - '7'
- - '7'
  - '35'
- - '7'
  - '8'
- - '7'
  - '9'
- - '7'
  - '16'
- - '7'
  - '18'
- - '7'
  - '38'
- - '9'
  - '24'
- - '9'
  - '10'
- - '9'
  - '23'
- - '11'
  - '35'
- - '12'
  - '35'
- - '13'
  - '34'
- - '15'
  - '23'
- - '17'
  - '19'
- - '20'
  - '37'
- - '21'
  - '38'
- - '22'
  - '35'
- - '26'
  - '35'
- - '27'
  - '35'
- - '28'
  - '38'
- - '29'
  - '35'
- - '30'
  - '35'
- - '31'
  - '32'
- - '32'
  - '35'
- - '32'
  - '38'
- - '33'
  - '34'
- - '34'
  - '35'
- - '34'
  - '36'
- - '35'
  - '37'
nodes:
  '0':
    Country: Czech Republic
    Internal: '1'
    Latitude: 50.20923
    Longitude: 15.83277
    label: Hradec Kralove
  '1':
    Country: Czech Republic
    Internal: '1'
    Latitude: 49.90436
    Longitude: 16.44413
    label: Ceska Trebova
  '10':
    Internal: '0'
    Latitude: 49.83465
    Longitude: 18.28204
    label: PIONIER
  '11':
    Country: Czech Republic
    Internal: '1'
    Latitude: 49.96382
    Longitude: 14.072
    label: Beroun
  '12':
    Country: Czech Republic
    Internal: '1'
    Latitude: 49.96459
    Longitude: 12.70118
    label: Marlanske Lazne
  '13':
    Country: Czech Republic
    Internal: '1'
    Latitude: 50.50301
    Longitude: 13.63617
    label: Most
  '14':
    Country: Czech Republic
    Internal: '1'
    Latitude: 50.43172
    Longitude: 15.81402
    label: Dvur Kralove
  '15':
    Country: Czech Republic
    Internal: '1'
    Latitude: 50.08967
    Longitude: 17.70385
    label: Krnov
  '16':
    Country: Czech Republic
    Internal: '1'
    Latitude: 49.01018
    Longitude: 17.12253
    label: Kyjov
  '17':
    Country: Czech Republic
    Internal: '1'
    Latitude: 49.3961
    Longitude: 15.59124
    label: Jihlava
  '18':
    Internal: '0'
    Latitude: 49.19522
    Longitude: 16.60796
    label: SANET
  '19':
    Country: Czech Republic
    Internal: '1'
    Latitude: 49.18418
    Longitude: 15.45275
    label: Telc
  '2':
    Country: Czech Republic
    Internal: '1'
    Latitude: 49.14404
    Longitude: 15.00301
    label: Jindrichuv Hradec
  '20':
    Country: Czech Republic
    Internal: '1'
    Latitude: 49.99403
    Longitude: 14.85922
    label: Kostelec n C.L
  '21':
    Country: Czech Republic
    Internal: '1'
    Latitude: 49.00364
    Longitude: 14.77065
    label: Trebon
  '22':
    Internal: '0'
    Latitude: 50.08804
    Longitude: 14.42076
    label: GEANT
  '23':
    Country: Czech Republic
    Internal: '1'
    Latitude: 49.93866
    Longitude: 17.90257
    label: Opava
  '24':
    Country: Czech Republic
    Internal: '1'
    Latitude: 49.84452
    Longitude: 18.49166
    label: Karvina
  '25':
    Country: Czech Republic
    Internal: '1'
    Latitude: 49.94839
    Longitude: 15.26816
    label: Kutna Hora
  '26':
    Country: Czech Republic
    Internal: '1'
    Latitude: 50.17734
    Longitude: 14.35733
    label: Rez
  '27':
    Country: Czech Republic
    Internal: '1'
    Latitude: 49.41441
    Longitude: 14.6578
    label: Tabor
  '28':
    Country: Czech Republic
    Internal: '1'
    Latitude: 49.3088
    Longitude: 14.1475
    label: Pisek
  '29':
    Internal: '0'
    Latitude: 50.08804
    Longitude: 14.42076
    label: NIX
  '3':
    Country: Czech Republic
    Internal: '1'
    Latitude: 50.04075
    Longitude: 15.77659
    label: Pardubice
  '30':
    Internal: '0'
    Latitude: 50.08804
    Longitude: 14.42076
    label: Internet
  '31':
    Country: Czech Republic
    Internal: '1'
    Latitude: 50.07963
    Longitude: 12.37392
    label: Cheb
  '32':
    Country: Czech Republic
    Internal: '1'
    Latitude: 49.74747
    Longitude: 13.37759
    label: Plzen
  '33':
    Country: Czech Republic
    Internal: '1'
    Latitude: 50.78215
    Longitude: 14.21478
    label: Decin
  '34':
    Country: Czech Republic
    Internal: '1'
    Latitude: 50.6607
    Longitude: 14.03227
    label: Usti nad Labem
  '35':
    Country: Czech Republic
    Internal: '1'
    Latitude: 50.08804
    Longitude: 14.42076
    label: Praha
  '36':
    Country: Czech Republic
    Internal: '1'
    Latitude: 50.76711
    Longitude: 15.05619
    label: Liberec
  '37':
    Country: Czech Republic
    Internal: '1'
    Latitude: 50.14242
    Longitude: 15.11881
    label: Podebrady
  '38':
    Country: Czech Republic
    Internal: '1'
    Latitude: 48.97447
    Longitude: 14.47434
    label: Ceske Budejovice
  '4':
    Country: Czech Republic
    Internal: '1'
    Latitude: 49.27747
    Longitude: 16.99897
    label: Vyskov
  '5':
    Country: Czech Republic
    Internal: '1'
    Latitude: 49.21667
    Longitude: 17.66667
    label: Zlin
  '6':
    Country: Czech Republic
    Internal: '1'
    Latitude: 49.59552
    Longitude: 17.25175
    label: Olomouc
  '7':
    Country: Czech Republic
    Internal: '1'
    Latitude: 49.19522
    Longitude: 16.60796
    label: Brno
  '8':
    Country: Czech Republic
    Internal: '1'
    Latitude: 48.75897
    Longitude: 16.88203
    label: Breclav,Lednice
  '9':
    Country: Czech Republic
    Internal: '1'
    Latitude: 49.83465
    Longitude: 18.28204
    label: Ostrava
