edges:
- - '0'
  - '1'
- - '0'
  - '2'
- - '0'
  - '4'
- - '0'
  - '5'
- - '1'
  - '2'
- - '1'
  - '4'
- - '1'
  - '5'
- - '2'
  - '4'
- - '2'
  - '5'
- - '3'
  - '4'
- - '4'
  - '5'
nodes:
  '0':
    Country: United States
    Internal: '1'
    Latitude: 37.77493
    Longitude: -122.41942
    label: San Francisco
  '1':
    Country: United States
    Internal: '1'
    Latitude: 34.05223
    Longitude: -118.24368
    label: Los Angeles
  '2':
    Country: United States
    Internal: '1'
    Latitude: 41.85003
    Longitude: -87.65005
    label: Chicago
  '3':
    Country: United States
    Internal: '1'
    Latitude: 38.93428
    Longitude: -77.17748
    label: McLean
  '4':
    Country: United States
    Internal: '1'
    Latitude: 38.89511
    Longitude: -77.03637
    label: Washington, DC
  '5':
    Country: United States
    Internal: '1'
    Latitude: 33.749
    Longitude: -84.38798
    label: Atlanta
