edges:
- - '0'
  - '55'
- - '1'
  - '55'
- - '2'
  - '3'
- - '3'
  - '53'
- - '3'
  - '55'
- - '4'
  - '7'
- - '5'
  - '7'
- - '6'
  - '7'
- - '7'
  - '32'
- - '7'
  - '33'
- - '7'
  - '35'
- - '7'
  - '41'
- - '7'
  - '10'
- - '7'
  - '11'
- - '7'
  - '45'
- - '7'
  - '46'
- - '7'
  - '47'
- - '7'
  - '16'
- - '7'
  - '17'
- - '7'
  - '51'
- - '7'
  - '43'
- - '7'
  - '55'
- - '7'
  - '24'
- - '7'
  - '25'
- - '7'
  - '27'
- - '7'
  - '23'
- - '8'
  - '33'
- - '9'
  - '33'
- - '12'
  - '33'
- - '13'
  - '33'
- - '14'
  - '41'
- - '15'
  - '41'
- - '18'
  - '43'
- - '19'
  - '43'
- - '20'
  - '42'
- - '20'
  - '21'
- - '20'
  - '22'
- - '26'
  - '41'
- - '27'
  - '39'
- - '27'
  - '36'
- - '27'
  - '37'
- - '27'
  - '38'
- - '28'
  - '33'
- - '29'
  - '41'
- - '30'
  - '41'
- - '31'
  - '33'
- - '32'
  - '55'
- - '34'
  - '35'
- - '40'
  - '41'
- - '42'
  - '43'
- - '43'
  - '48'
- - '44'
  - '51'
- - '49'
  - '51'
- - '50'
  - '51'
- - '52'
  - '55'
- - '54'
  - '55'
- - '55'
  - '56'
- - '55'
  - '57'
- - '55'
  - '58'
- - '55'
  - '59'
- - '55'
  - '60'
- - '55'
  - '61'
nodes:
  '0':
    Country: Greece
    Internal: '1'
    Latitude: 41.12278
    Longitude: 25.39639
    label: Komotini
    type: Main PoP
  '1':
    Country: Greece
    Internal: '1'
    Latitude: 40.8475
    Longitude: 25.87444
    label: Alexandroypoli
    type: Main PoP
  '10':
    Country: Greece
    Internal: '1'
    Latitude: 37.75722
    Longitude: 26.97694
    label: Samos
    type: PoP
  '11':
    Country: Greece
    Internal: '1'
    Latitude: 36.44083
    Longitude: 28.2225
    label: Rhodes
    type: Main PoP
  '12':
    Country: Greece
    Internal: '1'
    Latitude: 38.62139
    Longitude: 21.40778
    label: Agrinio
    type: PoP
  '13':
    Country: Greece
    Internal: '1'
    Latitude: 38.37019
    Longitude: 21.42952
    label: Mesologgi
    type: PoP
  '14':
    Country: Greece
    Internal: '1'
    Latitude: 38.95
    Longitude: 20.75
    label: Prevezza
    type: PoP
  '15':
    Country: Greece
    Internal: '1'
    Latitude: 39.16056
    Longitude: 20.98528
    label: Arta
    type: PoP
  '16':
    Country: Greece
    Internal: '1'
    Latitude: 38.9
    Longitude: 22.43333
    label: Lamia
    type: PoP
  '17':
    Country: Greece
    Internal: '1'
    Latitude: 38.31667
    Longitude: 23.63333
    label: Inofita
    type: PoP
  '18':
    Country: Greece
    Internal: '1'
    Latitude: 35.36472
    Longitude: 24.47139
    label: Rethymnon
    type: PoP
  '19':
    Country: Greece
    Internal: '1'
    Latitude: 35.05
    Longitude: 24.86667
    label: Moires
    type: PoP
  '2':
    Country: Greece
    Internal: '1'
    Latitude: 41.14139
    Longitude: 24.88361
    label: Xanthi
    type: PoP
  '20':
    Country: Greece
    Internal: '1'
    Latitude: 35.19139
    Longitude: 25.71333
    label: Ag. Nikolaos
    type: Main PoP
  '21':
    Country: Greece
    Internal: '1'
    Latitude: 35.01
    Longitude: 25.73528
    label: Ierapetra
    type: PoP
  '22':
    Country: Greece
    Internal: '1'
    Latitude: 35.2
    Longitude: 26.09861
    label: Siteia
    type: PoP
  '23':
    Country: Greece
    Internal: '1'
    Latitude: 37.94068
    Longitude: 22.95734
    label: Corinth
    type: PoP
  '24':
    Country: Greece
    Internal: '1'
    Latitude: 39.46667
    Longitude: 22.16667
    label: Itea
    type: PoP
  '25':
    Country: Greece
    Internal: '1'
    Latitude: 41.00167
    Longitude: 22.28611
    label: Livadia
    type: PoP
  '26':
    Country: Greece
    Internal: '1'
    Latitude: 40.51667
    Longitude: 21.26667
    label: Kastoria
    type: PoP
  '27':
    Country: Greece
    Internal: '1'
    Latitude: 39.63722
    Longitude: 22.42028
    label: Larissa
    type: Main PoP
  '28':
    Country: Greece
    Internal: '1'
    Latitude: 38.8275
    Longitude: 20.70194
    label: Lefkada
    type: PoP
  '29':
    Country: Greece
    Internal: '1'
    Latitude: 39.9225
    Longitude: 21.80278
    label: Grevena
    type: PoP
  '3':
    Country: Greece
    Internal: '1'
    Latitude: 40.93972
    Longitude: 24.40194
    label: Kavala
    type: Main PoP
  '30':
    Country: Greece
    Internal: '1'
    Latitude: 39.50389
    Longitude: 20.26556
    label: Igoumenitsa
    type: PoP
  '31':
    Country: Greece
    Internal: '1'
    Latitude: 38.18109
    Longitude: 20.48903
    label: Argostoli
    type: PoP
  '32':
    Internal: '0'
    Latitude: 39.309865
    Longitude: 23.330055
    label: Internet
  '33':
    Country: Greece
    Internal: '1'
    Latitude: 38.24444
    Longitude: 21.73444
    label: Patra
    type: Main PoP
  '34':
    Country: Greece
    Internal: '1'
    Latitude: 39.16227
    Longitude: 23.49089
    label: Sklathos
    type: PoP
  '35':
    Country: Greece
    Internal: '1'
    Latitude: 38.46361
    Longitude: 23.59944
    label: Chalkida
    type: Main PoP
  '36':
    Country: Greece
    Internal: '1'
    Latitude: 39.36556
    Longitude: 21.92167
    label: Karditsa
    type: PoP
  '37':
    Country: Greece
    Internal: '1'
    Latitude: 39.36667
    Longitude: 22.94583
    label: Volos
    type: PoP
  '38':
    Country: Greece
    Internal: '1'
    Latitude: 38.91667
    Longitude: 21.78333
    label: Karpenisi
    type: PoP
  '39':
    Country: Greece
    Internal: '1'
    Latitude: 39.55528
    Longitude: 21.7675
    label: Trikana
    type: PoP
  '4':
    Internal: '0'
    Latitude: 37.97945
    Longitude: 23.71622
    label: Interconnection Greece
  '40':
    Country: Greece
    Internal: '1'
    Latitude: 39.62
    Longitude: 19.91972
    label: Corfu
    type: PoP
  '41':
    Country: Greece
    Internal: '1'
    Latitude: 39.6675
    Longitude: 20.85083
    label: Ioaninna
    type: Main PoP
  '42':
    Country: Greece
    Internal: '1'
    Latitude: 35.30903
    Longitude: 25.37112
    label: Hersonlssos
    type: PoP
  '43':
    Country: Greece
    Internal: '1'
    Latitude: 35.32787
    Longitude: 25.14341
    label: Heraklion
    type: Main PoP
  '44':
    Country: Greece
    Internal: '1'
    Latitude: 37.63333
    Longitude: 22.73333
    label: Argos
    type: PoP
  '45':
    Country: Greece
    Internal: '1'
    Latitude: 37.45
    Longitude: 24.93333
    label: Syros
    type: PoP
  '46':
    Country: Greece
    Internal: '1'
    Latitude: 37.44529
    Longitude: 25.32872
    label: Mykonos
    type: PoP
  '47':
    Country: Greece
    Internal: '1'
    Latitude: 36.38613
    Longitude: 25.42959
    label: Santorini
    type: PoP
  '48':
    Country: Greece
    Internal: '1'
    Latitude: 35.51222
    Longitude: 24.01556
    label: Chania
    type: Main PoP
  '49':
    Country: Greece
    Internal: '1'
    Latitude: 37.07333
    Longitude: 22.42972
    label: Sparta
    type: PoP
  '5':
    Country: Greece
    Internal: '1'
    Latitude: 38.36778
    Longitude: 26.13583
    label: Chios
    type: PoP
  '50':
    Country: Greece
    Internal: '1'
    Latitude: 37.03889
    Longitude: 22.11417
    label: Kalamata
    type: PoP
  '51':
    Country: Greece
    Internal: '1'
    Latitude: 37.50889
    Longitude: 22.37944
    label: Tripoli
    type: Main PoP
  '52':
    Country: Greece
    Internal: '1'
    Latitude: 40.37444
    Longitude: 23.43833
    label: Polygyros
    type: PoP
  '53':
    Country: Greece
    Internal: '1'
    Latitude: 41.15444
    Longitude: 24.13944
    label: Drama
    type: PoP
  '54':
    Country: Greece
    Internal: '1'
    Latitude: 41.08556
    Longitude: 23.54972
    label: Serres
    type: Main PoP
  '55':
    Country: Greece
    Internal: '1'
    Latitude: 40.64028
    Longitude: 22.94389
    label: Thessaloniki
    type: Main PoP
  '56':
    Country: Greece
    Internal: '1'
    Latitude: 40.99194
    Longitude: 22.87083
    label: Kilkis
    type: PoP
  '57':
    Country: Greece
    Internal: '1'
    Latitude: 40.80056
    Longitude: 22.04722
    label: Edessa
    type: PoP
  '58':
    Country: Greece
    Internal: '1'
    Latitude: 40.78197
    Longitude: 21.40981
    label: Florina
    type: PoP
  '59':
    Country: Greece
    Internal: '1'
    Latitude: 40.52333
    Longitude: 22.20361
    label: Verola
    type: PoP
  '6':
    Country: Greece
    Internal: '1'
    Latitude: 39.31079
    Longitude: 26.22025
    label: Lesbos
    type: PoP
  '60':
    Country: Greece
    Internal: '1'
    Latitude: 40.30111
    Longitude: 21.78639
    label: Kozani
    type: PoP
  '61':
    Country: Greece
    Internal: '1'
    Latitude: 40.27194
    Longitude: 22.5025
    label: Katerina
    type: PoP
  '7':
    Country: Greece
    Internal: '1'
    Latitude: 37.97945
    Longitude: 23.71622
    label: Athens
    type: Main PoP
  '8':
    Country: Greece
    Internal: '1'
    Latitude: 37.79139
    Longitude: 20.89528
    label: Zakynthos
    type: PoP
  '9':
    Country: Greece
    Internal: '1'
    Latitude: 40.15889
    Longitude: 20.78472
    label: Pyrgos
    type: PoP
