edges:
- - '0'
  - '1'
- - '0'
  - '2'
- - '0'
  - '3'
- - '0'
  - '4'
- - '0'
  - '5'
- - '0'
  - '6'
- - '0'
  - '7'
- - '0'
  - '8'
- - '1'
  - '2'
- - '1'
  - '3'
- - '1'
  - '4'
- - '1'
  - '5'
- - '1'
  - '6'
- - '1'
  - '7'
- - '1'
  - '8'
- - '2'
  - '3'
- - '2'
  - '4'
- - '2'
  - '5'
- - '2'
  - '6'
- - '2'
  - '7'
- - '2'
  - '8'
- - '3'
  - '4'
- - '3'
  - '5'
- - '3'
  - '6'
- - '3'
  - '7'
- - '3'
  - '8'
- - '4'
  - '5'
- - '4'
  - '6'
- - '4'
  - '7'
- - '4'
  - '8'
- - '5'
  - '6'
- - '5'
  - '7'
- - '5'
  - '8'
- - '6'
  - '7'
- - '6'
  - '8'
- - '7'
  - '8'
nodes:
  '0':
    Country: United States
    Internal: '1'
    Latitude: 44.97997
    Longitude: -93.26384
    label: Minneapolis
  '1':
    Country: United States
    Internal: '1'
    Latitude: 47.60621
    Longitude: -122.33207
    label: Seattle
  '2':
    Country: United States
    Internal: '1'
    Latitude: 37.33939
    Longitude: -121.89496
    label: San Jose
  '3':
    Country: United States
    Internal: '1'
    Latitude: 33.44838
    Longitude: -112.07404
    label: Phoenix
  '4':
    Country: United States
    Internal: '1'
    Latitude: 32.78306
    Longitude: -96.80667
    label: Dallas
  '5':
    Country: United States
    Internal: '1'
    Latitude: 33.749
    Longitude: -84.38798
    label: Atlanta
  '6':
    Country: United States
    Internal: '1'
    Latitude: 38.90122
    Longitude: -77.26526
    label: Vienna
  '7':
    Country: United States
    Internal: '1'
    Latitude: 40.82454
    Longitude: -74.4171
    label: Whippany
  '8':
    Country: United States
    Internal: '1'
    Latitude: 41.85003
    Longitude: -87.65005
    label: Chicago
