edges:
- - '0'
  - '10'
- - '1'
  - '2'
- - '2'
  - '10'
- - '3'
  - '10'
- - '4'
  - '10'
- - '5'
  - '10'
- - '5'
  - '6'
- - '5'
  - '7'
- - '8'
  - '10'
- - '9'
  - '10'
- - '10'
  - '11'
- - '10'
  - '12'
nodes:
  '0':
    Country: South Korea
    Internal: '1'
    Latitude: 35.82194
    Longitude: 127.14889
    label: Jeonju
  '1':
    Country: South Korea
    Internal: '1'
    Latitude: 33.50972
    Longitude: 126.52194
    label: Jeju
  '10':
    Country: South Korea
    Internal: '1'
    Latitude: 36.32139
    Longitude: 127.41972
    label: Daejeon
  '11':
    Country: South Korea
    Internal: '1'
    Latitude: 36.03222
    Longitude: 129.365
    label: Pohang
  '12':
    Country: South Korea
    Internal: '1'
    Latitude: 35.87028
    Longitude: 128.59111
    label: Daegu
  '2':
    Country: South Korea
    Internal: '1'
    Latitude: 35.15472
    Longitude: 126.91556
    label: Kwangju
  '3':
    Country: South Korea
    Internal: '1'
    Latitude: 35.10278
    Longitude: 129.04028
    label: Busan
  '4':
    Country: South Korea
    Internal: '1'
    Latitude: 35.22806
    Longitude: 128.68111
    label: Changwon
  '5':
    Country: South Korea
    Internal: '1'
    Latitude: 37.56826
    Longitude: 126.97783
    label: Seoul
  '6':
    Country: South Korea
    Internal: '1'
    Latitude: 37.45361
    Longitude: 126.73167
    label: Incheon
  '7':
    Country: South Korea
    Internal: '1'
    Latitude: 37.29111
    Longitude: 127.00889
    label: Suwon
  '8':
    Country: South Korea
    Internal: '1'
    Latitude: 36.8065
    Longitude: 127.1522
    label: Cheonan
  '9':
    Country: South Korea
    Internal: '1'
    Latitude: 35.55292
    Longitude: 127.49042
    label: Ochang
