edges:
- - '0'
  - '3'
- - '0'
  - '11'
- - '1'
  - '2'
- - '1'
  - '6'
- - '2'
  - '10'
- - '2'
  - '11'
- - '2'
  - '14'
- - '3'
  - '7'
- - '4'
  - '13'
- - '4'
  - '6'
- - '4'
  - '5'
- - '5'
  - '7'
- - '6'
  - '13'
- - '6'
  - '14'
- - '6'
  - '7'
- - '8'
  - '16'
- - '8'
  - '12'
- - '8'
  - '15'
- - '9'
  - '16'
- - '9'
  - '14'
- - '9'
  - '15'
- - '10'
  - '19'
- - '12'
  - '13'
- - '13'
  - '16'
- - '13'
  - '14'
- - '14'
  - '15'
- - '14'
  - '17'
- - '15'
  - '16'
- - '16'
  - '17'
- - '17'
  - '18'
- - '17'
  - '19'
nodes:
  '0':
    Country: New Zealand
    Internal: '1'
    Latitude: -36.86667
    Longitude: 174.76667
    label: Auckland 2
  '1':
    Country: Fiji
    Internal: '1'
    Latitude: -18.0
    Longitude: 178.0
    geocode_country: Fiji
    label: Fiji
  '10':
    Country: Australia
    Internal: '1'
    Latitude: -37.814
    Longitude: 144.96332
    label: Melbourne
  '11':
    Country: Australia
    Internal: '1'
    Latitude: -33.86785
    Longitude: 151.20732
    label: Sydney 2
  '12':
    Country: South Korea
    Internal: '1'
    Latitude: 37.0
    Longitude: 127.5
    geocode_country: Korea
    label: Korea
  '13':
    Country: Japan
    Internal: '1'
    Latitude: 35.68536
    Longitude: 139.75309
    geocode_country: Japan
    label: Japan
  '14':
    Country: Guam
    Internal: '1'
    Latitude: 13.44444
    Longitude: 144.73667
    geocode_country: Guam
    label: Guam
  '15':
    Country: Philippines
    Internal: '1'
    Latitude: 13.0
    Longitude: 122.0
    geocode_country: Philippines
    label: Philippines 1
  '16':
    Country: Hong Kong
    Internal: '1'
    Latitude: 22.25
    Longitude: 114.16667
    geocode_country: Hong Kong
    label: Hong Kong
  '17':
    Country: Singapore
    Internal: '1'
    Latitude: 1.36667
    Longitude: 103.8
    geocode_country: Singapore
    label: Singapore/Malaysia
  '18':
    Country: Thailand
    Internal: '1'
    Latitude: 15.0
    Longitude: 100.0
    geocode_country: Thailand
    label: Thailand
  '19':
    Country: Australia
    Internal: '1'
    Latitude: -31.93333
    Longitude: 115.83333
    label: Perth
  '2':
    Country: Australia
    Internal: '1'
    Latitude: -33.86785
    Longitude: 151.20732
    label: Sydney 1
  '3':
    Country: New Zealand
    Internal: '1'
    Latitude: -36.86667
    Longitude: 174.76667
    label: Auckland 1
  '4':
    Country: United States
    Internal: '1'
    Latitude: 38.58157
    Longitude: -121.4944
    label: Sacramento
  '5':
    Country: United States
    Internal: '1'
    Latitude: 34.05223
    Longitude: -118.24368
    label: Los Angeles
  '6':
    Country: United States
    Internal: '1'
    Latitude: 21.30694
    Longitude: -157.85833
    label: Hawaii 1
  '7':
    Country: United States
    Internal: '1'
    Latitude: 21.30694
    Longitude: -157.85833
    label: Hawaii 2
  '8':
    Country: Taiwan
    Internal: '1'
    Latitude: 24.0
    Longitude: 121.0
    geocode_country: Taiwan
    label: Taiwan
  '9':
    Country: Philippines
    Internal: '1'
    Latitude: 13.0
    Longitude: 122.0
    geocode_country: Philippines
    label: Philippines 2
