edges:
- - '0'
  - '3'
- - '0'
  - '7'
- - '1'
  - '6'
- - '1'
  - '71'
- - '2'
  - '65'
- - '2'
  - '3'
- - '4'
  - '10'
- - '4'
  - '7'
- - '5'
  - '43'
- - '5'
  - '7'
- - '7'
  - '42'
- - '7'
  - '45'
- - '7'
  - '55'
- - '7'
  - '28'
- - '7'
  - '62'
- - '8'
  - '48'
- - '8'
  - '9'
- - '9'
  - '29'
- - '9'
  - '38'
- - '10'
  - '51'
- - '11'
  - '51'
- - '12'
  - '13'
- - '12'
  - '14'
- - '13'
  - '31'
- - '14'
  - '15'
- - '15'
  - '33'
- - '15'
  - '46'
- - '16'
  - '17'
- - '16'
  - '25'
- - '17'
  - '41'
- - '17'
  - '21'
- - '18'
  - '49'
- - '19'
  - '20'
- - '20'
  - '21'
- - '22'
  - '23'
- - '23'
  - '24'
- - '23'
  - '25'
- - '25'
  - '34'
- - '26'
  - '33'
- - '27'
  - '51'
- - '27'
  - '54'
- - '29'
  - '30'
- - '29'
  - '39'
- - '31'
  - '48'
- - '32'
  - '36'
- - '32'
  - '37'
- - '32'
  - '63'
- - '33'
  - '40'
- - '33'
  - '61'
- - '34'
  - '35'
- - '34'
  - '36'
- - '36'
  - '39'
- - '41'
  - '49'
- - '43'
  - '47'
- - '44'
  - '61'
- - '47'
  - '61'
- - '49'
  - '50'
- - '50'
  - '56'
- - '52'
  - '66'
- - '52'
  - '59'
- - '52'
  - '53'
- - '53'
  - '54'
- - '56'
  - '57'
- - '57'
  - '58'
- - '58'
  - '59'
- - '60'
  - '69'
- - '64'
  - '65'
- - '64'
  - '73'
- - '67'
  - '68'
- - '67'
  - '70'
- - '69'
  - '72'
- - '69'
  - '70'
- - '70'
  - '71'
- - '72'
  - '73'
nodes:
  '0':
    Country: United States
    Internal: '1'
    Latitude: 43.61211
    Longitude: -116.39151
    label: Meridian
    type: Access POP
  '1':
    Country: United States
    Internal: '1'
    Latitude: 43.8735
    Longitude: -116.4993
    label: Emmett
    type: Access POP
  '10':
    Country: United States
    Internal: '1'
    Latitude: 43.34657
    Longitude: -114.79173
    label: Fairfield
    type: Access POP
  '11':
    Country: United States
    Internal: '1'
    Latitude: 43.30768
    Longitude: -113.94475
    label: Carey
    type: Access POP
  '12':
    Country: United States
    Internal: '1'
    Latitude: 42.41269
    Longitude: -113.57806
    label: Albion
    type: Access POP
  '13':
    Country: United States
    Internal: '1'
    Latitude: 42.3063
    Longitude: -113.36917
    label: Malta
    type: Access POP
  '14':
    Country: United States
    Internal: '1'
    Latitude: 42.61908
    Longitude: -113.67723
    label: Rupert
    type: Access POP
  '15':
    Country: United States
    Internal: '1'
    Latitude: 42.53574
    Longitude: -113.79279
    label: Burley
    type: Access POP
  '16':
    Country: United States
    Internal: '1'
    Latitude: 43.31242
    Longitude: -111.79524
    label: Bone
    type: Access POP
  '17':
    Country: United States
    Internal: '1'
    Latitude: 43.5263
    Longitude: -111.93302
    label: Iona
    type: Access POP
  '18':
    Country: United States
    Internal: '1'
    Latitude: 44.07158
    Longitude: -111.44829
    label: Ashton
    type: Access POP
  '19':
    Country: United States
    Internal: '1'
    Latitude: 43.81447
    Longitude: -111.1602
    label: Tetonia
    type: Access POP
  '2':
    Country: United States
    Internal: '1'
    Latitude: 43.66294
    Longitude: -116.68736
    label: Caldwell
    type: Access POP
  '20':
    Country: United States
    Internal: '1'
    Latitude: 43.72325
    Longitude: -111.11133
    label: Driggs
    type: Access POP
  '21':
    Country: United States
    Internal: '1'
    Latitude: 43.6027
    Longitude: -111.11133
    label: Victor
    type: Access POP
  '22':
    Country: United States
    Internal: '1'
    Latitude: 43.47993
    Longitude: -110.76243
    label: Jackson
    type: Access POP
  '23':
    Country: United States
    Internal: '1'
    Latitude: 42.9827
    Longitude: -111.04382
    label: Freedom
    type: Access POP
  '24':
    Country: United States
    Internal: '1'
    Latitude: 42.72493
    Longitude: -110.93187
    label: Afton
    type: Access POP
  '25':
    Country: United States
    Internal: '1'
    Latitude: 42.90686
    Longitude: -111.53078
    label: Henry
    type: Access POP
  '26':
    Country: United States
    Internal: '1'
    Latitude: 42.93879
    Longitude: -114.71311
    label: Gooding
    type: Access POP
  '27':
    Country: United States
    Internal: '1'
    Latitude: 43.51963
    Longitude: -114.31532
    label: Hailey
    type: Central Office
  '28':
    Internal: '0'
    Latitude: 43.6135
    Longitude: -116.20345
    label: Coeur D'Alene
  '29':
    Country: United States
    Internal: '1'
    Latitude: 42.8713
    Longitude: -112.44553
    label: Pocatello
    type: POP
  '3':
    Country: United States
    Internal: '1'
    Latitude: 43.54072
    Longitude: -116.56346
    label: Nampa
    type: Access POP
  '30':
    Country: United States
    Internal: '1'
    Latitude: 43.19047
    Longitude: -112.34498
    label: Blackfoot
    type: Access POP
  '31':
    Country: United States
    Internal: '1'
    Latitude: 42.59713
    Longitude: -113.23611
    label: Raft River
    type: Access POP
  '32':
    Internal: '1'
    Latitude: 42.3814
    Longitude: -112.00403333333334
    hyperedge: '1'
    label: None
  '33':
    Country: United States
    Internal: '1'
    Latitude: 42.56297
    Longitude: -114.46087
    label: Twin Falls
    type: POP
  '34':
    Country: United States
    Internal: '1'
    Latitude: 42.65437
    Longitude: -111.60467
    label: Soda Springs
    type: Access POP
  '35':
    Country: United States
    Internal: '1'
    Latitude: 42.22715
    Longitude: -111.40104
    label: Paris
    type: Access POP
  '36':
    Country: United States
    Internal: '1'
    Latitude: 42.61936
    Longitude: -112.01107
    label: Lava Hot Springs
    type: Access POP
  '37':
    Country: United States
    Internal: '1'
    Latitude: 42.42853
    Longitude: -112.12441
    label: Downey
    type: Access POP
  '38':
    Country: United States
    Internal: '1'
    Latitude: 42.19159
    Longitude: -112.2508
    label: Malad City
    type: Access POP
  '39':
    Country: United States
    Internal: '1'
    Latitude: 42.65047
    Longitude: -112.19302
    label: McCammon
    type: Access POP
  '4':
    Country: United States
    Internal: '1'
    Latitude: 43.13295
    Longitude: -115.6912
    label: Tipanuk
    type: Access POP
  '40':
    Country: United States
    Internal: '1'
    Latitude: 42.93879
    Longitude: -114.71311
    label: Gooding
    type: Access POP
  '41':
    Country: United States
    Internal: '1'
    Latitude: 43.46658
    Longitude: -112.03414
    label: Idaho Falls
    type: Central Office
  '42':
    Internal: '0'
    Latitude: 43.6135
    Longitude: -116.20345
    label: Cheyenne
  '43':
    Country: United States
    Internal: '1'
    Latitude: 42.9549
    Longitude: -115.3009
    label: Glenn's Ferry
    type: Access POP
  '44':
    Country: United States
    Internal: '1'
    Latitude: 41.98324
    Longitude: -114.67476
    label: Jack Pot
    type: Access POP
  '45':
    Internal: '0'
    Latitude: 43.6135
    Longitude: -116.20345
    label: Salt Lake City
  '46':
    Country: United States
    Internal: '1'
    Latitude: 42.24325
    Longitude: -113.88196
    label: Oakley
    type: Access POP
  '47':
    Country: United States
    Internal: '1'
    Latitude: 42.81212
    Longitude: -114.89867
    label: Hagerman
    type: Access POP
  '48':
    Country: United States
    Internal: '1'
    Latitude: 42.78602
    Longitude: -112.85444
    label: American Falls
    type: POP
  '49':
    Country: United States
    Internal: '1'
    Latitude: 43.9663
    Longitude: -111.68218
    label: St Anthony
    type: Access POP
  '5':
    Country: United States
    Internal: '1'
    Latitude: 43.13295
    Longitude: -115.6912
    label: Mountain Home
    type: Access POP
  '50':
    Country: United States
    Internal: '1'
    Latitude: 44.1763
    Longitude: -112.23082
    label: Dubois
    type: Access POP
  '51':
    Internal: '1'
    Latitude: 43.39129333333333
    Longitude: -114.3506
    hyperedge: '1'
    label: None
  '52':
    Country: United States
    Internal: '1'
    Latitude: 44.50464
    Longitude: -114.23173
    label: Challis
    type: Access POP
  '53':
    Country: United States
    Internal: '1'
    Latitude: 44.21742
    Longitude: -114.93858
    label: Stanley
    type: Access POP
  '54':
    Country: United States
    Internal: '1'
    Latitude: 43.8713
    Longitude: -114.65729
    label: Galena
    type: Access POP
  '55':
    Internal: '0'
    Latitude: 43.6135
    Longitude: -116.20345
    label: Missoula
  '56':
    Country: United States
    Internal: '1'
    Latitude: 43.84157
    Longitude: -112.43637
    label: Terreton
    type: Access POP
  '57':
    Country: United States
    Internal: '1'
    Latitude: 43.78352
    Longitude: -113.00472
    label: Howe
    type: Access POP
  '58':
    Country: United States
    Internal: '1'
    Latitude: 43.63657
    Longitude: -113.30028
    label: Arco
    type: POP
  '59':
    Country: United States
    Internal: '1'
    Latitude: 43.91463
    Longitude: -113.61336
    label: Mackay
    type: Access POP
  '6':
    Country: United States
    Internal: '1'
    Latitude: 43.68916
    Longitude: -116.27071
    label: Hidden Springs
    type: Access POP
  '60':
    Internal: '0'
    Latitude: 44.57266
    Longitude: -116.67599
    label: Halfway
  '61':
    Country: United States
    Internal: '1'
    Latitude: 42.57019
    Longitude: -114.60782
    label: Filer
    type: Access POP
  '62':
    Internal: '0'
    Latitude: 43.6135
    Longitude: -116.20345
    label: Spokane
  '63':
    Country: United States
    Internal: '1'
    Latitude: 42.09631
    Longitude: -111.87662
    label: Preston
    type: Access POP
  '64':
    Country: United States
    Internal: '1'
    Latitude: 44.07822
    Longitude: -116.93377
    label: Payette
    type: Access POP
  '65':
    Country: United States
    Internal: '1'
    Latitude: 44.00766
    Longitude: -116.91655
    label: Fruitland
    type: Access POP
  '66':
    Country: United States
    Internal: '1'
    Latitude: 45.17575
    Longitude: -113.8959
    label: Salmon
    type: Access POP
  '67':
    Country: United States
    Internal: '1'
    Latitude: 44.72989
    Longitude: -116.4382
    label: Council
    type: Access POP
  '68':
    Country: United States
    Internal: '1'
    Latitude: 44.91101
    Longitude: -116.09874
    label: McCall
    type: Access POP
  '69':
    Country: United States
    Internal: '1'
    Latitude: 44.57266
    Longitude: -116.67599
    label: Cambridge
    type: Access POP
  '7':
    Country: United States
    Internal: '1'
    Latitude: 43.6135
    Longitude: -116.20345
    label: Boise
    type: Central Office
  '70':
    Country: United States
    Internal: '1'
    Latitude: 44.62878
    Longitude: -116.4507
    label: Mesa
    type: Access POP
  '71':
    Country: United States
    Internal: '1'
    Latitude: 44.55711
    Longitude: -116.43403
    label: Indian Valley
    type: Access POP
  '72':
    Country: United States
    Internal: '1'
    Latitude: 44.47127
    Longitude: -116.73461
    label: Midvale
    type: Access POP
  '73':
    Country: United States
    Internal: '1'
    Latitude: 44.251
    Longitude: -116.96933
    label: Weiser
    type: Access POP
  '8':
    Country: United States
    Internal: '1'
    Latitude: 42.57325
    Longitude: -112.87721
    label: Rockland
    type: Access POP
  '9':
    Country: United States
    Internal: '1'
    Latitude: 42.45575
    Longitude: -112.56831
    label: Arbon
    type: Access POP
