edges:
- - '0'
  - '75'
- - '1'
  - '75'
- - '2'
  - '75'
- - '3'
  - '75'
- - '4'
  - '76'
- - '5'
  - '76'
- - '6'
  - '75'
- - '7'
  - '76'
- - '8'
  - '76'
- - '9'
  - '76'
- - '10'
  - '76'
- - '11'
  - '74'
- - '12'
  - '76'
- - '13'
  - '76'
- - '14'
  - '76'
- - '15'
  - '76'
- - '16'
  - '76'
- - '17'
  - '76'
- - '18'
  - '76'
- - '19'
  - '76'
- - '20'
  - '76'
- - '21'
  - '76'
- - '22'
  - '76'
- - '23'
  - '76'
- - '24'
  - '76'
- - '25'
  - '76'
- - '26'
  - '76'
- - '27'
  - '76'
- - '28'
  - '74'
- - '29'
  - '76'
- - '30'
  - '76'
- - '31'
  - '76'
- - '32'
  - '76'
- - '33'
  - '76'
- - '34'
  - '76'
- - '34'
  - '39'
- - '35'
  - '76'
- - '36'
  - '76'
- - '37'
  - '49'
- - '38'
  - '72'
- - '40'
  - '44'
- - '41'
  - '76'
- - '42'
  - '76'
- - '43'
  - '76'
- - '44'
  - '76'
- - '45'
  - '76'
- - '46'
  - '76'
- - '47'
  - '76'
- - '48'
  - '76'
- - '49'
  - '76'
- - '50'
  - '76'
- - '51'
  - '74'
- - '52'
  - '76'
- - '53'
  - '76'
- - '54'
  - '76'
- - '55'
  - '76'
- - '56'
  - '76'
- - '57'
  - '74'
- - '58'
  - '74'
- - '59'
  - '76'
- - '60'
  - '74'
- - '61'
  - '76'
- - '62'
  - '76'
- - '63'
  - '76'
- - '64'
  - '76'
- - '65'
  - '76'
- - '66'
  - '76'
- - '67'
  - '74'
- - '68'
  - '76'
- - '69'
  - '76'
- - '70'
  - '75'
- - '71'
  - '75'
- - '72'
  - '76'
- - '73'
  - '76'
- - '74'
  - '76'
- - '74'
  - '77'
- - '74'
  - '78'
- - '74'
  - '79'
- - '74'
  - '80'
- - '74'
  - '75'
- - '75'
  - '76'
- - '75'
  - '81'
nodes:
  '0':
    Country: Turkey
    Internal: '1'
    Latitude: 37.77417
    Longitude: 29.0875
    label: Denizli
    type: Yellow Colour
  '1':
    Country: Turkey
    Internal: '1'
    Latitude: 38.67351
    Longitude: 29.4058
    label: Usak
    type: Yellow Colour
  '10':
    Internal: '1'
    Latitude: 39.91987
    Longitude: 32.85427
    label: Gazimagusa
    type: Yellow Colour
  '11':
    Country: Turkey
    Internal: '1'
    Latitude: 40.65502
    Longitude: 29.27693
    label: Yalova
    type: Yellow Colour
  '12':
    Country: Turkey
    Internal: '1'
    Latitude: 40.65333
    Longitude: 35.83306
    label: Amasya
    type: Yellow Colour
  '13':
    Country: Turkey
    Internal: '1'
    Latitude: 40.31389
    Longitude: 36.55444
    label: Tokat
    type: Yellow Colour
  '14':
    Country: Turkey
    Internal: '1'
    Latitude: 37.96583
    Longitude: 34.67935
    label: Nigde
    type: Yellow Colour
  '15':
    Country: Turkey
    Internal: '1'
    Latitude: 36.20655
    Longitude: 36.15722
    label: Hatay
    type: Yellow Colour
  '16':
    Country: Turkey
    Internal: '1'
    Latitude: 37.76441
    Longitude: 38.27629
    label: Adiyaman
    type: Yellow Colour
  '17':
    Internal: '1'
    Latitude: 39.91987
    Longitude: 32.85427
    label: K. Maras
    type: Yellow Colour
  '18':
    Country: Turkey
    Internal: '1'
    Latitude: 39.90861
    Longitude: 41.27694
    label: Erzurum
    type: Yellow Colour
  '19':
    Country: Turkey
    Internal: '1'
    Latitude: 41.63583
    Longitude: 32.3375
    label: Bartin
    type: Yellow Colour
  '2':
    Country: Turkey
    Internal: '1'
    Latitude: 37.84501
    Longitude: 27.83963
    label: Aydin
    type: Yellow Colour
  '20':
    Country: Turkey
    Internal: '1'
    Latitude: 41.20488
    Longitude: 32.62768
    label: Karabuk
    type: Yellow Colour
  '21':
    Country: Turkey
    Internal: '1'
    Latitude: 36.79526
    Longitude: 34.61792
    label: Mersin
    type: Yellow Colour
  '22':
    Country: Turkey
    Internal: '1'
    Latitude: 37.18111
    Longitude: 33.215
    label: Karaman
    type: Yellow Colour
  '23':
    Country: Turkey
    Internal: '1'
    Latitude: 38.37255
    Longitude: 34.02537
    label: Aksaray
    type: Yellow Colour
  '24':
    Country: Turkey
    Internal: '1'
    Latitude: 37.86556
    Longitude: 32.4825
    label: Konya
    type: Yellow Colour
  '25':
    Country: Turkey
    Internal: '1'
    Latitude: 42.03087
    Longitude: 35.17124
    label: Sinop
    type: Yellow Colour
  '26':
    Country: Turkey
    Internal: '1'
    Latitude: 41.28667
    Longitude: 36.33
    label: Samsun
    type: Yellow Colour
  '27':
    Country: Turkey
    Internal: '1'
    Latitude: 37.00167
    Longitude: 35.32889
    label: Adana
    type: Yellow Colour
  '28':
    Country: Turkey
    Internal: '1'
    Latitude: 40.14192
    Longitude: 29.97932
    label: Bilecik
    type: Yellow Colour
  '29':
    Country: Turkey
    Internal: '1'
    Latitude: 40.91698
    Longitude: 38.38741
    label: Giresun
    type: Yellow Colour
  '3':
    Country: Turkey
    Internal: '1'
    Latitude: 37.21807
    Longitude: 28.3665
    label: Mugla
    type: Yellow Colour
  '30':
    Country: Turkey
    Internal: '1'
    Latitude: 37.57444
    Longitude: 43.74083
    label: Hakkari
    type: Yellow Colour
  '31':
    Country: Turkey
    Internal: '1'
    Latitude: 38.67431
    Longitude: 39.22321
    label: Elazig
    type: Yellow Colour
  '32':
    Country: Turkey
    Internal: '1'
    Latitude: 41.10871
    Longitude: 42.70222
    label: Ardahan
    type: Yellow Colour
  '33':
    Country: Turkey
    Internal: '1'
    Latitude: 41.18222
    Longitude: 41.81944
    label: Artvin
    type: Yellow Colour
  '34':
    Country: Turkey
    Internal: '1'
    Latitude: 40.54889
    Longitude: 34.95333
    label: Corum
    type: Yellow Colour
  '35':
    Country: Turkey
    Internal: '1'
    Latitude: 38.88472
    Longitude: 40.49389
    label: Bingol
    type: Yellow Colour
  '36':
    Country: Turkey
    Internal: '1'
    Latitude: 38.49239
    Longitude: 43.38311
    label: Van
    type: Yellow Colour
  '37':
    Country: Turkey
    Internal: '1'
    Latitude: 37.07417
    Longitude: 36.24778
    label: Osmaniye
    type: Yellow Colour
  '38':
    Country: Turkey
    Internal: '1'
    Latitude: 39.71944
    Longitude: 43.05139
    label: Agri
    type: Yellow Colour
  '39':
    Country: Turkey
    Internal: '1'
    Latitude: 40.98472
    Longitude: 37.87889
    label: Ordu
    type: Yellow Colour
  '4':
    Country: Turkey
    Internal: '1'
    Latitude: 37.72028
    Longitude: 30.29083
    label: Burdur
    type: Yellow Colour
  '40':
    Country: Turkey
    Internal: '1'
    Latitude: 37.31309
    Longitude: 40.74357
    label: Mardin
    type: Yellow Colour
  '41':
    Country: Turkey
    Internal: '1'
    Latitude: 38.35018
    Longitude: 38.31667
    label: Malatya
    type: Yellow Colour
  '42':
    Country: Turkey
    Internal: '1'
    Latitude: 37.52278
    Longitude: 42.45944
    label: Sirnak
    type: Yellow Colour
  '43':
    Country: Turkey
    Internal: '1'
    Latitude: 37.91583
    Longitude: 40.21889
    label: Diyarbakir
    type: Yellow Colour
  '44':
    Country: Turkey
    Internal: '1'
    Latitude: 39.82
    Longitude: 34.80444
    label: Yozgat
    type: Yellow Colour
  '45':
    Country: Turkey
    Internal: '1'
    Latitude: 38.73222
    Longitude: 35.48528
    label: Kayseri
    type: Yellow Colour
  '46':
    Country: Turkey
    Internal: '1'
    Latitude: 40.60199
    Longitude: 43.09495
    label: Kars
    type: Yellow Colour
  '47':
    Country: Turkey
    Internal: '1'
    Latitude: 38.625
    Longitude: 34.71222
    label: Nevsehir
    type: Yellow Colour
  '48':
    Country: Turkey
    Internal: '1'
    Latitude: 37.05944
    Longitude: 37.3825
    label: Gaziantep
    type: Yellow Colour
  '49':
    Country: Turkey
    Internal: '1'
    Latitude: 39.84528
    Longitude: 33.50639
    label: Kirikkale
    type: Yellow Colour
  '5':
    Country: Turkey
    Internal: '1'
    Latitude: 36.9125
    Longitude: 30.68972
    label: Antalya
    type: Yellow Colour
  '50':
    Country: Turkey
    Internal: '1'
    Latitude: 36.71611
    Longitude: 37.115
    label: Kilis
    type: Yellow Colour
  '51':
    Internal: '0'
    Latitude: 41.01384
    Longitude: 28.94966
    label: GEANT
  '52':
    Country: Turkey
    Internal: '1'
    Latitude: 39.14583
    Longitude: 34.16389
    label: Kirsehir
    type: Yellow Colour
  '53':
    Country: Turkey
    Internal: '1'
    Latitude: 40.59995
    Longitude: 33.6153
    label: Cankiri
    type: Yellow Colour
  '54':
    Country: Turkey
    Internal: '1'
    Latitude: 41.37805
    Longitude: 33.77528
    label: Kastamonu
    type: Yellow Colour
  '55':
    Country: Turkey
    Internal: '1'
    Latitude: 38.74525
    Longitude: 41.50693
    label: Mus
    type: Yellow Colour
  '56':
    Country: Turkey
    Internal: '1'
    Latitude: 39.77667
    Longitude: 30.52056
    label: Eskisehir
    type: Yellow Colour
  '57':
    Country: Turkey
    Internal: '1'
    Latitude: 40.76694
    Longitude: 29.91694
    label: Kocaeli
    type: Yellow Colour
  '58':
    Country: Turkey
    Internal: '1'
    Latitude: 40.78056
    Longitude: 30.40333
    label: Sakarya
    type: Yellow Colour
  '59':
    Country: Turkey
    Internal: '1'
    Latitude: 38.40115
    Longitude: 42.10784
    label: Bitlis
    type: Yellow Colour
  '6':
    Country: Turkey
    Internal: '1'
    Latitude: 38.75667
    Longitude: 30.54333
    label: Afyonkarahisar
    type: Yellow Colour
  '60':
    Country: Turkey
    Internal: '1'
    Latitude: 40.19167
    Longitude: 29.06111
    label: Bursa
    type: Yellow Colour
  '61':
    Country: Turkey
    Internal: '1'
    Latitude: 40.73583
    Longitude: 31.60611
    label: Bolu
    type: Yellow Colour
  '62':
    Country: Turkey
    Internal: '1'
    Latitude: 40.83889
    Longitude: 31.16389
    label: Duzce
    type: Yellow Colour
  '63':
    Country: Turkey
    Internal: '1'
    Latitude: 41.45139
    Longitude: 31.79305
    label: Zonguldak
    type: Yellow Colour
  '64':
    Country: Turkey
    Internal: '1'
    Latitude: 41.02083
    Longitude: 40.52194
    label: Rize
    type: Yellow Colour
  '65':
    Internal: '1'
    Latitude: 39.91987
    Longitude: 32.85427
    label: S. Urfa
    type: Yellow Colour
  '66':
    Internal: '0'
    Latitude: 39.91987
    Longitude: 32.85427
    label: Internet
  '67':
    Internal: '0'
    Latitude: 41.01384
    Longitude: 28.94966
    label: Internet
  '68':
    Country: Turkey
    Internal: '1'
    Latitude: 41.005
    Longitude: 39.72694
    label: Trabzon
    type: Yellow Colour
  '69':
    Country: Turkey
    Internal: '1'
    Latitude: 39.92371
    Longitude: 44.045
    label: Igdir
    type: Yellow Colour
  '7':
    Country: Turkey
    Internal: '1'
    Latitude: 37.76444
    Longitude: 30.55222
    label: Isparta
    type: Yellow Colour
  '70':
    Country: Turkey
    Internal: '1'
    Latitude: 38.61202
    Longitude: 27.42646
    label: Manisa
    type: Yellow Colour
  '71':
    Country: Turkey
    Internal: '1'
    Latitude: 39.42417
    Longitude: 29.98333
    label: Kutahya
    type: Yellow Colour
  '72':
    Country: Turkey
    Internal: '1'
    Latitude: 39.75222
    Longitude: 39.49278
    label: Erzincan
    type: Yellow Colour
  '73':
    Country: Turkey
    Internal: '1'
    Latitude: 39.74833
    Longitude: 37.01611
    label: Sivas
    type: Yellow Colour
  '74':
    Country: Turkey
    Internal: '1'
    Latitude: 41.01384
    Longitude: 28.94966
    label: Istanbul
    type: Red Colour
  '75':
    Country: Turkey
    Internal: '1'
    Latitude: 38.41273
    Longitude: 27.13838
    label: iZMiR
    type: Red Colour
  '76':
    Country: Turkey
    Internal: '1'
    Latitude: 39.91987
    Longitude: 32.85427
    label: Ankara
    type: Red Colour
  '77':
    Country: Turkey
    Internal: '1'
    Latitude: 41.73508
    Longitude: 27.22521
    label: Kirklareli
    type: Yellow Colour
  '78':
    Country: Turkey
    Internal: '1'
    Latitude: 40.97801
    Longitude: 27.50852
    label: Tekirdag
    type: Yellow Colour
  '79':
    Country: Turkey
    Internal: '1'
    Latitude: 41.67719
    Longitude: 26.55597
    label: Edirne
    type: Yellow Colour
  '8':
    Country: Turkey
    Internal: '1'
    Latitude: 37.88738
    Longitude: 41.13221
    label: Batman
    type: Yellow Colour
  '80':
    Country: Turkey
    Internal: '1'
    Latitude: 40.14556
    Longitude: 26.40639
    label: Canakkale
    type: Yellow Colour
  '81':
    Country: Turkey
    Internal: '1'
    Latitude: 39.64917
    Longitude: 27.88611
    label: Balikesin
    type: Yellow Colour
  '9':
    Country: Turkey
    Internal: '1'
    Latitude: 37.93262
    Longitude: 41.94025
    label: Siirt
    type: Yellow Colour
