edges:
- - '0'
  - '19'
- - '0'
  - '3'
- - '0'
  - '2'
- - '0'
  - '11'
- - '0'
  - '21'
- - '1'
  - '3'
- - '1'
  - '6'
- - '2'
  - '54'
- - '2'
  - '6'
- - '5'
  - '10'
- - '5'
  - '20'
- - '6'
  - '7'
- - '8'
  - '56'
- - '8'
  - '9'
- - '8'
  - '28'
- - '8'
  - '12'
- - '9'
  - '26'
- - '9'
  - '15'
- - '10'
  - '25'
- - '11'
  - '48'
- - '11'
  - '14'
- - '12'
  - '51'
- - '12'
  - '13'
- - '13'
  - '28'
- - '13'
  - '27'
- - '14'
  - '41'
- - '15'
  - '51'
- - '16'
  - '17'
- - '16'
  - '42'
- - '17'
  - '36'
- - '17'
  - '37'
- - '18'
  - '19'
- - '18'
  - '47'
- - '20'
  - '22'
- - '20'
  - '21'
- - '22'
  - '32'
- - '23'
  - '32'
- - '23'
  - '24'
- - '24'
  - '25'
- - '25'
  - '32'
- - '26'
  - '58'
- - '27'
  - '33'
- - '28'
  - '31'
- - '29'
  - '45'
- - '29'
  - '30'
- - '30'
  - '32'
- - '30'
  - '42'
- - '31'
  - '33'
- - '33'
  - '55'
- - '34'
  - '43'
- - '34'
  - '60'
- - '34'
  - '62'
- - '35'
  - '36'
- - '35'
  - '38'
- - '37'
  - '40'
- - '37'
  - '38'
- - '39'
  - '40'
- - '39'
  - '42'
- - '41'
  - '42'
- - '41'
  - '42'
- - '43'
  - '44'
- - '44'
  - '49'
- - '44'
  - '47'
- - '45'
  - '49'
- - '45'
  - '52'
- - '45'
  - '46'
- - '46'
  - '47'
- - '47'
  - '48'
- - '49'
  - '50'
- - '49'
  - '59'
- - '50'
  - '51'
- - '51'
  - '52'
- - '53'
  - '54'
- - '53'
  - '62'
- - '55'
  - '56'
- - '56'
  - '57'
- - '57'
  - '58'
- - '58'
  - '59'
- - '59'
  - '60'
nodes:
  '0':
    Country: United States
    Internal: '1'
    Latitude: 39.76838
    Longitude: -86.15804
    label: 'Indianapolis '
  '1':
    Country: United States
    Internal: '1'
    Latitude: 39.16532
    Longitude: -86.52639
    label: Bloomington
  '10':
    Country: United States
    Internal: '1'
    Latitude: 38.62727
    Longitude: -90.19789
    label: St Loius
  '11':
    Country: United States
    Internal: '1'
    Latitude: 40.4167
    Longitude: -86.87529
    label: Lafayette
  '12':
    Country: United States
    Internal: '1'
    Latitude: 42.96336
    Longitude: -85.66809
    label: Grand Rapids
  '13':
    Country: United States
    Internal: '1'
    Latitude: 43.23418
    Longitude: -86.24839
    label: Muskegon
  '14':
    Country: United States
    Internal: '1'
    Latitude: 41.59337
    Longitude: -87.34643
    label: Gary
  '15':
    Country: United States
    Internal: '1'
    Latitude: 42.32115
    Longitude: -85.17971
    label: Battle Creek
  '16':
    Country: United States
    Internal: '1'
    Latitude: 42.27113
    Longitude: -89.094
    label: 'Rockford '
  '17':
    Country: United States
    Internal: '1'
    Latitude: 43.07305
    Longitude: -89.40123
    label: 'Madison '
  '18':
    Country: United States
    Internal: '1'
    Latitude: 40.19338
    Longitude: -85.38636
    label: Muncie
  '19':
    Country: United States
    Internal: '1'
    Latitude: 40.10532
    Longitude: -85.68025
    label: Anderson
  '2':
    Country: United States
    Internal: '1'
    Latitude: 39.52144
    Longitude: -85.77692
    label: Shelbyville
  '20':
    Country: United States
    Internal: '1'
    Latitude: 39.48309
    Longitude: -88.37283
    label: 'Mattoon '
  '21':
    Country: United States
    Internal: '1'
    Latitude: 39.4667
    Longitude: -87.41391
    label: 'Terre Haute '
  '22':
    Country: United States
    Internal: '1'
    Latitude: 40.11642
    Longitude: -88.24338
    label: 'Champaign '
  '23':
    Country: United States
    Internal: '1'
    Latitude: 40.4842
    Longitude: -88.99369
    label: Bloomington
  '24':
    Country: United States
    Internal: '1'
    Latitude: 40.69365
    Longitude: -89.58899
    label: 'Peoria '
  '25':
    Country: United States
    Internal: '1'
    Latitude: 39.80172
    Longitude: -89.64371
    label: 'Springfield '
  '26':
    Country: United States
    Internal: '1'
    Latitude: 42.27756
    Longitude: -83.74088
    label: Ann Arbor
  '27':
    Country: United States
    Internal: '1'
    Latitude: 44.76306
    Longitude: -85.62063
    label: Traverse City
  '28':
    Country: United States
    Internal: '1'
    Latitude: 43.59781
    Longitude: -84.76751
    label: Mt Pleasant
  '29':
    Country: United States
    Internal: '1'
    Latitude: 41.57587
    Longitude: -87.17615
    label: Portage
  '3':
    Country: United States
    Internal: '1'
    Latitude: 39.61366
    Longitude: -86.10665
    label: Greenwood
  '30':
    Country: United States
    Internal: '1'
    Latitude: 41.85003
    Longitude: -87.65005
    label: 'Chicago '
  '31':
    Country: United States
    Internal: '1'
    Latitude: 43.61558
    Longitude: -84.24721
    label: Midland
  '32':
    Internal: '1'
    Latitude: 40.563092499999996
    Longitude: -88.63270750000001
    hyperedge: '1'
    label: None
  '33':
    Country: United States
    Internal: '1'
    Latitude: 43.41947
    Longitude: -83.95081
    label: Saginaw
  '34':
    Internal: '1'
    Latitude: 40.734410000000004
    Longitude: -82.93314333333332
    hyperedge: '1'
    label: None
  '35':
    Country: United States
    Internal: '1'
    Latitude: 44.26193
    Longitude: -88.41538
    label: 'Appleton '
  '36':
    Country: United States
    Internal: '1'
    Latitude: 44.02471
    Longitude: -88.54261
    label: 'Oshkosh '
  '37':
    Country: United States
    Internal: '1'
    Latitude: 43.0389
    Longitude: -87.90647
    label: 'Milwaukee '
  '38':
    Country: United States
    Internal: '1'
    Latitude: 44.51916
    Longitude: -88.01983
    label: 'Green Bay '
  '39':
    Country: United States
    Internal: '1'
    Latitude: 42.03336
    Longitude: -87.8834
    label: 'Des Plaines '
  '40':
    Country: United States
    Internal: '1'
    Latitude: 42.12753
    Longitude: -87.82895
    label: 'Northbrook '
  '41':
    Country: United States
    Internal: '1'
    Latitude: 41.80503
    Longitude: -87.86923
    label: La Grange
  '42':
    Country: United States
    Internal: '1'
    Latitude: 41.83281
    Longitude: -87.92895
    label: 'Oak Brook '
  '43':
    Country: United States
    Internal: '1'
    Latitude: 40.74255
    Longitude: -84.10523
    label: Lima
  '44':
    Country: United States
    Internal: '1'
    Latitude: 41.1306
    Longitude: -85.12886
    label: Fort Wayne
  '45':
    Country: United States
    Internal: '1'
    Latitude: 41.68338
    Longitude: -86.25001
    label: South Bend
  '46':
    Country: United States
    Internal: '1'
    Latitude: 41.2381
    Longitude: -85.85305
    label: Warsaw
  '47':
    Country: United States
    Internal: '1'
    Latitude: 40.54969
    Longitude: -85.6597
    geocode_id: '7317018'
    label: Marion
  '48':
    Country: United States
    Internal: '1'
    Latitude: 40.48643
    Longitude: -86.1336
    label: Kokomo
  '49':
    Country: United States
    Internal: '1'
    Latitude: 41.68199
    Longitude: -85.97667
    label: Elkhart
  '5':
    Country: United States
    Internal: '1'
    Latitude: 38.52505
    Longitude: -89.1334
    label: 'Centralia '
  '50':
    Country: United States
    Internal: '1'
    Latitude: 41.94394
    Longitude: -85.63249
    label: Three Rivers
  '51':
    Country: United States
    Internal: '1'
    Latitude: 42.29171
    Longitude: -85.58723
    label: Kalamazoo
  '52':
    Country: United States
    Internal: '1'
    Latitude: 41.82977
    Longitude: -86.25418
    label: Niles
  '53':
    Country: United States
    Internal: '1'
    Latitude: 39.75895
    Longitude: -84.19161
    label: 'Dayton '
  '54':
    Country: United States
    Internal: '1'
    Latitude: 39.162
    Longitude: -84.45689
    label: 'Cincinnati '
  '55':
    Country: United States
    Internal: '1'
    Latitude: 43.41947
    Longitude: -83.95081
    label: Saginaw
  '56':
    Country: United States
    Internal: '1'
    Latitude: 43.01253
    Longitude: -83.68746
    label: Flint
  '57':
    Country: United States
    Internal: '1'
    Latitude: 42.63892
    Longitude: -83.29105
    label: Pontiac
  '58':
    Country: United States
    Internal: '1'
    Latitude: 42.4762
    Longitude: -83.2428
    label: Southfield/Detroit
  '59':
    Country: United States
    Internal: '1'
    Latitude: 41.66394
    Longitude: -83.55521
    label: Toledo
  '6':
    Country: United States
    Internal: '1'
    Latitude: 39.20144
    Longitude: -85.92138
    label: Columbus
  '60':
    Country: United States
    Internal: '1'
    Latitude: 41.4995
    Longitude: -81.69541
    label: Cleveland
  '62':
    Country: United States
    Internal: '1'
    Latitude: 39.96118
    Longitude: -82.99879
    label: 'Columbus '
  '7':
    Country: United States
    Internal: '1'
    Latitude: 38.25424
    Longitude: -85.75941
    label: Louisville
  '8':
    Country: United States
    Internal: '1'
    Latitude: 42.73254
    Longitude: -84.55553
    label: Lansing
  '9':
    Country: United States
    Internal: '1'
    Latitude: 42.24587
    Longitude: -84.40135
    label: Jackson
